{
  "matches": {
    "match": [
      {
        "date": "25.11.2023",
        "time": "09:00",
        "host": {
          "club": "VC Müllheim"
        },
        "team": [
          {
            "id": "1",
            "name": "VC Weil"
          },
          {
            "id": "2",
            "name": "VfR Merzhausen"
          }
        ],
        "matchSeries": {
          "name": "Bezirksmeisterschaften U14 weiblich",
          "type": "CustomTournament"
        },
        "location": {
          "name": "Halle II",
          "street": "Schwarzwaldstraße 12A",
          "postalCode": "79379",
          "city": "Müllheim"
        }
      },
      {
        "date": "25.11.2023",
        "time": "09:00",
        "host": {
          "club": "VC Müllheim"
        },
        "team": [
          {
            "id": "3",
            "name": "FT 1844 Freiburg 1"
          },
          {
            "id": "4",
            "name": "FT 1844 Freiburg 3"
          }
        ],
        "matchSeries": {
          "name": "Bezirksmeisterschaften U14 weiblich",
          "type": "CustomTournament"
        },
        "location": {
          "name": "Halle II",
          "street": "Schwarzwaldstraße 12A",
          "postalCode": "79379",
          "city": "Müllheim"
        }
      },
      {
        "date": "25.11.2023",
        "time": "09:00",
        "host": {
          "club": "VC Müllheim"
        },
        "team": [
          {
            "id": "5",
            "name": "TV Gundelfingen 1"
          },
          {
            "id": "6",
            "name": "VC Bötzingen"
          }
        ],
        "matchSeries": {
          "name": "Bezirksmeisterschaften U14 weiblich",
          "type": "CustomTournament"
        },
        "location": {
          "name": "Halle II",
          "street": "Schwarzwaldstraße 12A",
          "postalCode": "79379",
          "city": "Müllheim"
        }
      },
      {
        "date": "25.11.2023",
        "time": "09:00",
        "host": {
          "club": "VC Müllheim"
        },
        "team": [
          {
            "id": "1",
            "name": "FT 1844 Freiburg 1"
          },
          {
            "id": "2",
            "name": "FT 1844 Freiburg 3"
          }
        ],
        "matchSeries": {
          "name": "Bezirksmeisterschaften U14 männlich",
          "type": "CustomTournament"
        },
        "location": {
          "name": "Halle II",
          "street": "Schwarzwaldstraße 12A",
          "postalCode": "79379",
          "city": "Müllheim"
        }
      },
      {
        "date": "25.11.2023",
        "time": "09:00",
        "host": {
          "club": "VC Müllheim"
        },
        "team": [
          {
            "id": "3",
            "name": "VC Minseln"
          },
          {
            "id": "4",
            "name": "VC Weil"
          }
        ],
        "matchSeries": {
          "name": "Bezirksmeisterschaften U14 männlich",
          "type": "CustomTournament"
        },
        "location": {
          "name": "Halle II",
          "street": "Schwarzwaldstraße 12A",
          "postalCode": "79379",
          "city": "Müllheim"
        }
      }
    ]
  }
}
